[
  {
    "id": "1",
    "name": "Реабилитационный центр «Восстановление»",
    "address": "мкр. Нурсат, 12, Шымкент",
    "rating": 4.8,
    "reviewCount": 87,
    "phone": "+7 (725) 260-15-15",
    "description": "Современный центр физической реабилитации с бассейном, залом ЛФК и кабинетами физиотерапии. Специализируется на постинсультном и постоперационном восстановлении.",
    "programs": ["Постинсультная реабилитация", "ЛФК", "Физиотерапия", "Массаж", "Гидротерапия"],
    "services": ["Постинсультная реабилитация", "ЛФК", "Физиотерапия", "Массаж", "Гидротерапия"],
    "workingHours": "08:00 — 20:00",
    "capacity": 120,
    "lat": 42.3280,
    "lng": 69.5760,
    "coordinates": { "lat": 42.3280, "lng": 69.5760 },
    "city": "Shymkent",
    "type": "rehab"
  },
  {
    "id": "2",
    "name": "Центр «АктивМед»",
    "address": "ул. Тамерлановское шоссе, 8, Шымкент",
    "rating": 4.6,
    "reviewCount": 54,
    "phone": "+7 (725) 237-88-88",
    "description": "Специализированный центр спортивной и ортопедической реабилитации. Используют методики PNF, Бобат-терапию и кинезиотейпирование.",
    "programs": ["Спортивная реабилитация", "Ортопедия", "PNF-терапия", "Бобат-терапия", "Массаж"],
    "services": ["Спортивная реабилитация", "Ортопедия", "PNF-терапия", "Бобат-терапия", "Массаж"],
    "workingHours": "09:00 — 19:00",
    "capacity": 60,
    "lat": 42.3120,
    "lng": 69.5870,
    "coordinates": { "lat": 42.3120, "lng": 69.5870 },
    "city": "Shymkent",
    "type": "rehab"
  },
  {
    "id": "3",
    "name": "Неврологический реабилитационный центр «НейроКор»",
    "address": "ул. Аль-Фараби, 33, Шымкент",
    "rating": 4.9,
    "reviewCount": 112,
    "phone": "+7 (725) 244-90-90",
    "description": "Центр специализируется на неврологической реабилитации: восстановление после инсульта, черепно-мозговых травм и при болезни Паркинсона.",
    "programs": ["Нейрореабилитация", "Восстановление речи", "Когнитивная терапия", "Эрготерапия"],
    "services": ["Нейрореабилитация", "Восстановление речи", "Когнитивная терапия", "Эрготерапия"],
    "workingHours": "08:00 — 18:00",
    "capacity": 80,
    "lat": 42.3200,
    "lng": 69.5700,
    "coordinates": { "lat": 42.3200, "lng": 69.5700 },
    "city": "Shymkent",
    "type": "rehab"
  },
  {
    "id": "4",
    "name": "Кардиореабилитационный центр «Кардио+»",
    "address": "пр. Республики, 44, Шымкент",
    "rating": 4.7,
    "reviewCount": 68,
    "phone": "+7 (725) 222-55-55",
    "description": "Специализированный центр восстановления после операций на сердце и лечения хронической сердечной недостаточности. Телемониторинг пациентов.",
    "programs": ["Кардиореабилитация", "ЛФК при ССЗ", "Диетология", "Психологическая поддержка"],
    "services": ["Кардиореабилитация", "ЛФК при ССЗ", "Диетология", "Психологическая поддержка"],
    "workingHours": "09:00 — 17:00",
    "capacity": 50,
    "lat": 42.3160,
    "lng": 69.5920,
    "coordinates": { "lat": 42.3160, "lng": 69.5920 },
    "city": "Shymkent",
    "type": "rehab"
  },
  {
    "id": "5",
    "name": "Детский реабилитационный центр «Детский Мир Здоровья»",
    "address": "ул. Жибек Жолы, 77, Шымкент",
    "rating": 4.8,
    "reviewCount": 203,
    "phone": "+7 (725) 275-00-11",
    "description": "Единственный в Шымкенте специализированный центр для детей с ДЦП, задержкой речевого развития и нарушениями опорно-двигательного аппарата.",
    "programs": ["Реабилитация при ДЦП", "Логопедия", "Дефектология", "Сенсорная интеграция", "АВА-терапия"],
    "services": ["Реабилитация при ДЦП", "Логопедия", "Дефектология", "Сенсорная интеграция", "АВА-терапия"],
    "workingHours": "09:00 — 18:00",
    "capacity": 90,
    "lat": 42.3050,
    "lng": 69.5840,
    "coordinates": { "lat": 42.3050, "lng": 69.5840 },
    "city": "Shymkent",
    "type": "rehab"
  },
  {
    "id": "6",
    "name": "Санаторий-профилакторий «Шымкент Хелс»",
    "address": "ул. Горная, 5, Шымкент",
    "rating": 4.5,
    "reviewCount": 145,
    "phone": "+7 (725) 213-77-77",
    "description": "Комплексный санаторий с грязелечением, минеральными ваннами и программами снижения стресса. Принимает работников предприятий и частных лиц.",
    "programs": ["Грязелечение", "Бальнеотерапия", "Стресс-менеджмент", "Профилактика", "SPA"],
    "services": ["Грязелечение", "Бальнеотерапия", "Стресс-менеджмент", "Профилактика", "SPA"],
    "workingHours": "08:00 — 21:00",
    "capacity": 200,
    "lat": 42.2980,
    "lng": 69.5950,
    "coordinates": { "lat": 42.2980, "lng": 69.5950 },
    "city": "Shymkent",
    "type": "rehab"
  },
  {
    "id": "rehab_001",
    "name": "ReVita Rehab",
    "address": "Шымкент, ул. Ж. Аймаутова, 54 (угол ул. Майлыкожа)",
    "rating": 5.0,
    "reviewCount": 12,
    "phone": "unknown",
    "description": "Центр реабилитации при зависимостях. Помогает пациентам вернуться к полноценной и здоровой жизни.",
    "programs": ["Лечение алкогольной зависимости", "Лечение наркотической зависимости", "Лечение игромании"],
    "services": ["Лечение алкогольной зависимости", "Лечение наркотической зависимости", "Лечение игромании"],
    "workingHours": "круглосуточно",
    "capacity": 30,
    "lat": 42.3300,
    "lng": 69.6300,
    "coordinates": { "lat": 42.3300, "lng": 69.6300 },
    "city": "Shymkent",
    "type": "rehab"
  },
  {
    "id": "rehab_002",
    "name": "Promed (Промед)",
    "address": "Шымкент, ул. Дулати, 134",
    "rating": 5.0,
    "reviewCount": 17,
    "phone": "unknown",
    "description": "Центр лечения позвоночника и суставов. Эффективные методики реабилитации, массаж, физиотерапия и иглоукалывание.",
    "programs": ["Реабилитация", "Массаж", "Иглоукалывание"],
    "services": ["Реабилитация", "Массаж", "Иглоукалывание"],
    "workingHours": "09:00-22:00",
    "capacity": 45,
    "lat": 42.3500,
    "lng": 69.5930,
    "coordinates": { "lat": 42.3500, "lng": 69.5930 },
    "city": "Shymkent",
    "type": "rehab"
  },
  {
    "id": "rehab_003",
    "name": "Центр доктора Бубновского",
    "address": "Шымкент, ул. Майлы кожа, 45",
    "rating": 4.4,
    "reviewCount": 5,
    "phone": "unknown",
    "description": "Центр кинезитерапии и лечебной физкультуры. Лечение заболеваний опорно-двигательного аппарата без лекарств и операций.",
    "programs": ["Реабилитация после травм", "ЛФК", "Нетрадиционная медицина"],
    "services": ["Реабилитация после травм", "ЛФК", "Нетрадиционная медицина"],
    "workingHours": "08:00-17:00",
    "capacity": 80,
    "lat": 42.3150,
    "lng": 69.6250,
    "coordinates": { "lat": 42.3150, "lng": 69.6250 },
    "city": "Shymkent",
    "type": "rehab"
  },
  {
    "id": "rehab_004",
    "name": "Центр здоровья и реабилитации",
    "address": "Шымкент, ул. Турсынкул Утегенова, 48а",
    "rating": 5.0,
    "reviewCount": 13,
    "phone": "unknown",
    "description": "Центр физиотерапии и реабилитации, восстановительное лечение после травм и заболеваний нервной системы.",
    "programs": ["Реабилитация травм", "Иглорефлексотерапия", "Механотерапия"],
    "services": ["Реабилитация травм", "Иглорефлексотерапия", "Механотерапия"],
    "workingHours": "09:00-14:00",
    "capacity": 40,
    "lat": 42.3270,
    "lng": 69.5750,
    "coordinates": { "lat": 42.3270, "lng": 69.5750 },
    "city": "Shymkent",
    "type": "rehab"
  }
]
